position,time_period,end_date,xplaintiff,xstreet_clean,filings,top100,lat,lon
1,2022-09-01,2023-08-31,RED BAY APARTMENTS,7528 ARLINGTON EXPY,175,0.365,30.325074,-81.579321
2,2022-09-01,2023-08-31,SHORE HOUSE APTS,401 CENTURY 21ST DR,156,0.365,30.308811,-81.569453
3,2022-09-01,2023-08-31,RIVERBANK APTS LP,1591 LANE AVE,144,0.365,30.291204,-81.754937
4,2022-09-01,2023-08-31,"OAKS AT NORMANDY ACQUISITION LLC, A LIMITED LIABILITY COMPANY",7777 NORMANDY BLVD,131,0.365,30.296872,-81.777165
5,2022-09-01,2023-08-31,BOATHOUSE TIC I LLC,400 CENTURY 21ST DR,119,0.365,30.308397,-81.5731
6,2022-09-01,2023-08-31,THE ELEMENT AT RIVER POINTE,11291 HARTS RD,101,0.365,30.439518,-81.658494
7,2022-09-01,2023-08-31,TREE HOUSE,3500 UNIVERSITY BLVD,93,0.365,30.361695,-81.611589
8,2022-09-01,2023-08-31,"CAROLINE SQUARE REALTY LLC, A LIMITED LIABILITY COMPANY",5959 FT CAROLINE RD,88,0.365,30.36619,-81.599082
9,2022-09-01,2023-08-31,"SAN REMO RESIDENCES TIC I, LLC",843 ALDERMAN RD,83,0.365,30.329222,-81.575366
10,2022-09-01,2023-08-31,AREP PIER LLC,5350 ARLINGTON EXPY,80,0.365,30.325724,-81.605536
11,2022-09-01,2023-08-31,PRCP ST JOHNS AVONDALE LLC,7925 MERRILL RD,79,0.365,30.357406,-81.562837
12,2022-09-01,2023-08-31,CEDAR RIVER PARTNERS LLC,4207 CONFEDERATE POINT RD,74,0.365,30.26639,-81.731758
13,2022-09-01,2023-08-31,"MW-RESERVE AT ST JOHN'S 1 LLC, A LIMITED LIABILITY COMPANY",5885 EDENFIELD RD,73,0.365,30.384723,-81.601458
14,2022-09-01,2023-08-31,SAVANNAH SPRINGS APTS,6945 MORSE AVE,73,0.365,30.232818,-81.760887
15,2022-09-01,2023-08-31,WATERS EDGE APTS,900 BROWARD RD,72,0.365,30.407129,-81.662558
16,2022-09-01,2023-08-31,CYPRESS LANDING APTS LP,4857 MONCRIEF RD,71,0.365,30.370572,-81.682852
17,2022-09-01,2023-08-31,"EDENS EDGE ACQUISITION LLC, A LIMITED LIABILITY COMPANY",7101 WILSON BLVD,70,0.365,30.270661,-81.762232
18,2022-09-01,2023-08-31,NORTHLAKE APARTMENTS,2445 DUNN AVE,69,0.365,30.440519,-81.686469
19,2022-09-01,2023-08-31,THE ANSLEY APARTMENTS,11011 HARTS RD,68,0.365,30.434885,-81.65806
20,2022-09-01,2023-08-31,GREEN TREE BORROWER LLC,9480 PRINCETON SQUARE BLVD,67,0.365,30.2157,-81.563025
21,2022-09-01,2023-08-31,"THE VILLAS AT ORTEGA LP, A LIMITED PARTNERSHIP",5327 TIMUQUANA RD,66,0.365,30.249085,-81.719676
22,2022-09-01,2023-08-31,"SREIT COURTNEY MANOR LLC, A LIMITED LIABILITY COMPANY",5620 COLLINS RD,65,0.365,30.194805,-81.728725
23,2022-09-01,2023-08-31,THE PARK AT ALSTON,5170 COLLINS RD,64,0.365,30.19322,-81.720801
24,2022-09-01,2023-08-31,INFINITY MAGNOLIA LLC,2045 JAMMES RD,62,0.365,30.281038,-81.744254
25,2022-09-01,2023-08-31,THE LAKESIDE NEST,2651 UNIVERSITY BLVD,60,0.365,30.348872,-81.599958
26,2022-09-01,2023-08-31,"RCM ACQUISITION LLC, A LIMITED LIABILITY COMPANY",12900 BROXTON BAY DR,59,0.365,30.472342,-81.638645
27,2022-09-01,2023-08-31,GREGORY COVE APARTMENTS,5601 EDENFIELD RD,58,0.365,30.384378,-81.605126
28,2022-09-01,2023-08-31,G&I IX PARADISE ISLAND RENTAL COMMUNITY PARADISE ISLAND RENTAL COMMUNITY,7845 PARADISE ISLAND BLVD,58,0.365,30.201016,-81.544123
29,2022-09-01,2023-08-31,MIRAMAR,3131 UNIVERSITY BLVD,58,0.365,30.355774,-81.602381
30,2022-09-01,2023-08-31,TIMBERWOOD TRACE APTS.,12250 ATLANTIC BLVD,56,0.365,30.3172,-81.484678
31,2022-09-01,2023-08-31,THE BREAKERS,9116 HATIAN WAY,56,0.365,30.288867,-81.805949
32,2022-09-01,2023-08-31,ADDISON LANDING APTS,9455 103RD ST,55,0.365,30.248627,-81.812192
33,2022-09-01,2023-08-31,LAKESIDE APARTMENTS,8700 SOUTHSIDE BLVD,55,0.365,30.204299,-81.553724
34,2022-09-01,2023-08-31,MIRAMAR,3134 JUSTINA RD,54,0.365,30.356923,-81.600872
35,2022-09-01,2023-08-31,"KENDALL COURT LLC, A LIMITED LIABILITY COMPANY",10535 LEM TURNER RD,54,0.365,30.426656,-81.69239
36,2022-09-01,2023-08-31,PEOPLES CHOICE APTS LLC,2501 JAMMES RD,54,0.365,30.27325,-81.746967
37,2022-09-01,2023-08-31,"GRANITE PARADISE VILLAGE, LLC",10201 BEAVER ST,53,0.365,30.318018,-81.826869
38,2022-09-01,2023-08-31,"MANDARIN PROPERTY HOLDINGS LLC, A DELAWARE LIMITED LIABILITY COMPANY AUTHORIZED TO DO BUSINESS IN FLORIDA, AS LANDLORD OF THE PARK AT ANZIO",4083 SUNBEAM RD,53,0.365,30.208294,-81.610411
39,2022-09-01,2023-08-31,THE AVERY AT RIVERCITY MARKETPLACE,14200 DUVAL RD,53,0.365,30.473087,-81.652464
40,2022-09-01,2023-08-31,TOWNSEND APARTMENTS EAST LLC,3400 TOWNSEND BLVD,53,0.365,30.364107,-81.577742
41,2022-09-01,2023-08-31,OAKLEAF PLANTATION,250 CHERRY RIDGE DR,51,0.365,30.191655,-81.832559
42,2022-09-01,2023-08-31,KINGS TRAIL HOLDINGS LLC,3770 TOLEDO RD,51,0.365,30.249943,-81.619478
43,2022-09-01,2023-08-31,"ATLANTIC MULTI FAMILY 12 - BELLA TERRAZA LLC, A LIMITED LIABILITY COMPANY",355 MONUMENT RD,50,0.365,30.328372,-81.546624
44,2022-09-01,2023-08-31,GOLDEN SHORES OF JACKSONVILLE APARTMENTS,7743 INDIA AVE,50,0.365,30.321168,-81.576474
45,2022-09-01,2023-08-31,"BENTLEY GREEN APARTMENT INVESTORS LLC, A LIMITED LIABILITY COMPANY",9536 PRINCETON SQUARE BLVD,50,0.365,30.216162,-81.561049
46,2022-09-01,2023-08-31,BRIDGE WF FL WESTLAND PARK LLC,6710 COLLINS RD,50,0.365,30.203311,-81.751768
47,2022-09-01,2023-08-31,PORTSIDE MHC LLC,2675 TRACK TRL,49,0.365,30.298325,-81.449204
48,2022-09-01,2023-08-31,CREEKSIDE PARK APARTMENTS,5900 TOWNSEND RD,49,0.365,30.218469,-81.733941
49,2022-09-01,2023-08-31,MISSION POINTE APARTMENTS,12450 BISCAYNE BLVD,49,0.365,30.457628,-81.670481
50,2022-09-01,2023-08-31,THE MERIDIAN,653 MONUMENT RD,47,0.365,30.334947,-81.542697
51,2022-09-01,2023-08-31,HERON WALK APARTMENTS,7400 POWERS AVE,47,0.365,30.244337,-81.612645
52,2022-09-01,2023-08-31,THE FINLEY,9541 103RD ST,47,0.365,30.24886,-81.814194
53,2022-09-01,2023-08-31,LANDINGS AT SAN MARCO,2600 ART MUSEUM DR,46,0.365,30.299281,-81.615411
54,2022-09-01,2023-08-31,CYCLONE RIVERVIEW OWNER LLC,301 CARAVAN CIR,45,0.365,30.310716,-81.562761
55,2022-09-01,2023-08-31,"THE VILLAS AT ORTEGA LP, A LIMITED PARTNERSHIP",5121 CATOMA ST,45,0.365,30.250824,-81.720246
56,2022-09-01,2023-08-31,LA ESTANCIA,5141 SHENANDOAH AVE,44,0.365,30.360282,-81.733561
57,2022-09-01,2023-08-31,"TOPAZ GARDENS JAX BH LLC, A DELAWARE LIMITED LIABILITY COMPANY AUTHORIZED TO DO BUSINESS IN FLORIDA, AS LANDLORD OF TOPAZ GARDENS APARTMENTS",7350 BLANDING BLVD,44,0.365,30.214194,-81.738721
58,2022-09-01,2023-08-31,NOVO KENDALL TOWN,1290 KENDALL TOWN BLVD,44,0.365,30.342469,-81.549045
59,2022-09-01,2023-08-31,PEOPLES CHOICE APTS LLC,830 ARLINGTON RIVER DR,43,0.365,30.326261,-81.599381
60,2022-09-01,2023-08-31,TOWNSEND APARTMENTS EAST LLC,3501 TOWNSEND BLVD,43,0.365,30.363271,-81.5755
61,2022-09-01,2023-08-31,PAC MENLO LLC,11390 SQUARE ST,42,0.365,30.165324,-81.507137
62,2022-09-01,2023-08-31,THE ENCLAVE APTS,13300 ATLANTIC BLVD,42,0.365,30.316029,-81.454503
63,2022-09-01,2023-08-31,SUNDANCE POINTE,5681 EDENFIELD RD,42,0.365,30.385009,-81.603462
64,2022-09-01,2023-08-31,"LELAND ENTERPRISES INC, A CORPORATION",10970 LEM TURNER RD,41,0.365,30.434925,-81.699331
65,2022-09-01,2023-08-31,"MEZZA LP, A DELAWARE LIMITED PARTNERSHIP, AUTHORIZED TO DO BUSINESS IN FLORIDA AS LANDLORD OF MEZZA",11701 PALM LAKE DR,41,0.365,30.448849,-81.631466
66,2022-09-01,2023-08-31,WATERFORD AT MANDARIN,11247 SAN JOSE BLVD,40,0.365,30.166961,-81.627136
67,2022-09-01,2023-08-31,THE AVENUES APTS,9645 BAYMEADOWS RD,40,0.365,30.22271,-81.560176
68,2022-09-01,2023-08-31,"LANDINGS (JACKSONVILLE) OWNER, LLC",6500 LAKE GRAY BLVD,39,0.365,30.202047,-81.748252
69,2022-09-01,2023-08-31,HERITAGE MULTIFAMILY PARTNERS LLC,4375 CONFEDERATE POINT RD,39,0.365,30.263391,-81.72884
70,2022-09-01,2023-08-31,CRESCENT RIDGE APARTMENTS,2001 HODGES BLVD,39,0.365,30.312313,-81.457164
71,2022-09-01,2023-08-31,LINDSEY TERRACE APTS.,8500 ARGYLE BUSINESS LOOP,38,0.365,30.19193,-81.74657
72,2022-09-01,2023-08-31,CENTURY DEERWOOD PARK,8450 GATE PKWY,38,0.365,30.253267,-81.56855
73,2022-09-01,2023-08-31,THE CLUB AT TOWN CENTER,3737 ST JOHNS BLUFF RD,38,0.365,30.279333,-81.524104
74,2022-09-01,2023-08-31,THE POINT AT ARROWHEAD,10136 ARROWHEAD DR,38,0.365,30.191588,-81.61382
75,2022-09-01,2023-08-31,THE KENSLEY,6371 COLLINS RD,38,0.365,30.20518,-81.747215
76,2022-09-01,2023-08-31,SILVERSMITH CREEK,7211 CRANE AVE,38,0.365,30.30886,-81.58163
77,2022-09-01,2023-08-31,ATLANTIC MULTI FAMILY II LLC,8291 DAMES POINT CROSSING BLVD,38,0.365,30.356331,-81.556579
78,2022-09-01,2023-08-31,SOUTHSIDE BLVD BORROWER II LLC,8745 PALM BREEZE RD,37,0.365,30.202429,-81.550531
79,2022-09-01,2023-08-31,SAGEFIELD JACKSONVILLE OWNER LLC,13283 MAIN ST,37,0.365,30.478232,-81.628064
80,2022-09-01,2023-08-31,WOODLAND ESTATES,9359 103RD ST,36,0.365,30.249029,-81.809788
81,2022-09-01,2023-08-31,"MID-AMERICA APARTMENT COMMUNITIES, LTD",1715 HODGES BLVD,36,0.365,30.31789,-81.457082
82,2022-09-01,2023-08-31,THE PARK AT POTTSBURG CREEK,4800 ATLANTIC BLVD,35,0.365,30.308034,-81.614776
83,2022-09-01,2023-08-31,LOFTS AT JEFFERSON STATION APTS.,799 WATER ST,35,0.365,30.327439,-81.668029
84,2022-09-01,2023-08-31,THE OAKS ON MONUMENT,401 MONUMENT RD,35,0.365,30.330541,-81.543223
85,2022-09-01,2023-08-31,"PELICAN POINTE GARDENS MANAGING CO GP LLC, A LIMITED LIABILITY COMPANY, AS GENERAL PARTNER OF PELICAN POINTE GARDENS LP, A LIMITED PARTNERSHIP",1333 DUNN AVE,35,0.365,30.432465,-81.669507
86,2022-09-01,2023-08-31,CANOPY PLACE APTS,11050 HARTS RD,34,0.365,30.437068,-81.661696
87,2022-09-01,2023-08-31,COVENTRY PARK APARTMENTS,6650 CORPORATE CENTER PKWY,34,0.365,30.25648,-81.597866
88,2022-09-01,2023-08-31,LIONS HEAD APTS,4950 RICHARD ST,34,0.365,30.270042,-81.617001
89,2022-09-01,2023-08-31,"SREIT HAMPTON RIDGE JAX LLC, A LIMITED LIABILITY COMPANY",11501 HARTS RD,34,0.365,30.441953,-81.656848
90,2022-09-01,2023-08-31,NORTHWOOD APARTMENTS,1601 DUNN AVE,33,0.365,30.431189,-81.673096
91,2022-09-01,2023-08-31,OASIS CLUB,5800 UNIVERSITY BLVD,32,0.365,30.272024,-81.606813
92,2022-09-01,2023-08-31,CREEKFRONT AT DEERWOOD,7632 SOUTHSIDE BLVD,32,0.365,30.23462,-81.555268
93,2022-09-01,2023-08-31,LUXOR CLUB,13800 EGRETS NEST DR,32,0.365,30.126152,-81.522403
94,2022-09-01,2023-08-31,MIRAMAR,5753 HOLLY BELL DR,32,0.365,30.357331,-81.601167
95,2022-09-01,2023-08-31,"FLKNARRS LLC, A LIMITED LIABILITY COMPANY",888 FRANKLIN ST,31,0.365,30.333208,-81.6403
96,2022-09-01,2023-08-31,"MID-AMERICA APARTMENTS, LTD",11001 OLD ST AUGUSTINE RD,31,0.365,30.17569,-81.60235
97,2022-09-01,2023-08-31,PEOPLES CHOICE APTS LLC,5641 CALIFORNIA AVE,31,0.365,30.244467,-81.783041
98,2022-09-01,2023-08-31,PAC SORREL II LLC,11901 ABESS BLVD,31,0.365,30.325697,-81.495973
99,2022-09-01,2023-08-31,SHORELINE MULTIFAMILY PARTNERS LLC,4455 CONFEDERATE POINT RD,31,0.365,30.261178,-81.729016
100,2022-09-01,2023-08-31,THE AVENUES APTS,7901 BAYMEADOWS CIR,30,0.365,30.228528,-81.560697
