position,time_period,end_date,xplaintiff,xstreet_clean,filings,top100,lat,lon
1,2022-09-01,2023-08-31,1918 PLANTATION KEY OWNER LLC,2010 PLANTATION KEY CIR,172,0.249,27.931275,-82.3154
2,2022-09-01,2023-08-31,RESERVE AT LAKE POINTE MO OWNER LLC,5475 LYNN LAKE DR S,160,0.249,27.716308,-82.666651
3,2022-09-01,2023-08-31,PURITAN PLACE APARTMENTS LLC,4802 SIMS INLT,111,0.249,28.018743,-82.403547
4,2022-09-01,2023-08-31,"RIVER CHASE PROPERTY HOLDINGS, LLC",6610 S RIVERCHASE DR,109,0.249,28.02647,-82.379448
5,2022-09-01,2023-08-31,BELLAMAR HOLDINGS LLC,12402 N 15TH ST,98,0.249,28.060257,-82.443153
6,2022-09-01,2023-08-31,ASHFORD BAYSIDE LLC,5870 56TH AVE N,89,0.249,27.822524,-82.713796
7,2022-09-01,2023-08-31,MELROSE ON THE BAY M-O OWNER LLC,5074 FOXBRIDGE CIR N,89,0.249,27.923101,-82.703746
8,2022-09-01,2023-08-31,RIVIERA TFL LLC,5236 MATADOR CT,79,0.249,28.026659,-82.399541
9,2022-09-01,2023-08-31,RIVERTREE LANDING APARTMENTS LLC,5906 SANTA FE RIVER DR,74,0.249,28.012934,-82.389584
10,2022-09-01,2023-08-31,BMF IV FL RADIUS PALMS LLC,3416 PALM CROSSING DR,73,0.249,28.078444,-82.419959
11,2022-09-01,2023-08-31,1918 PLANTATION KEY OWNER LLC,419 PROVIDENCE RD,71,0.249,27.933937,-82.313446
12,2022-09-01,2023-08-31,LANTOWER CROSSROADS BRANDON GP LLC,10461 SANDERLING SHORES DR,70,0.249,27.926375,-82.335922
13,2022-09-01,2023-08-31,LANDMARK AT GRAYSON PARK LP,15501 BRUCE B DOWNS BLVD,68,0.249,28.083778,-82.407638
14,2022-09-01,2023-08-31,VESPER USF LLC,3414 JEFFERSON COMMONS DR,65,0.249,28.074171,-82.422103
15,2022-09-01,2023-08-31,PARK ABERDEEN APARTMENTS LLC,13831 AZALEA CIR,60,0.249,28.074648,-82.428842
16,2022-09-01,2023-08-31,PALM RESIDENCES LLC,10610 N 30TH ST,60,0.249,28.045847,-82.428309
17,2022-09-01,2023-08-31,OSPREY POINTE APTS LLC,1709 56TH TER S,58,0.249,27.716723000000002,-82.659063
18,2022-09-01,2023-08-31,CLAYMORE HOUSING GP LLC,4502 CLAYMORE DR,56,0.249,27.989031,-82.31935
19,2022-09-01,2023-08-31,PACIFICA HELLENIC LLC,14424 HELLENIC DR,56,0.249,28.078267,-82.415584
20,2022-09-01,2023-08-31,ALLISTER TFL LLC,4939 E BUSCH BLVD,55,0.249,28.030376,-82.402801
21,2022-09-01,2023-08-31,TIMBERFALLS 113 HOLDINGS LLC,11306 SPRING CT,54,0.249,28.052149,-82.429576
22,2022-09-01,2023-08-31,CROSS CREEK LLC,10314 VENITIA REAL AVE,53,0.249,28.144527,-82.319705
23,2022-09-01,2023-08-31,WINDWOOD OAKS TAMPA APARTMENTS LTD,14868 SHADY KNOLL CT,53,0.249,28.082324,-82.462997
24,2022-09-01,2023-08-31,RESPARK BUNGALOW OAKS LLC,6115 FRONTAGE RD,52,0.249,28.068826,-82.385532
25,2022-09-01,2023-08-31,RIVER POINTE APARTMENTS LLC,4710 PURITAN RD,51,0.249,28.020569,-82.404088
26,2022-09-01,2023-08-31,MARISOL VISTA,10073 14TH ST N,51,0.249,27.863706,-82.653241
27,2022-09-01,2023-08-31,"BAY VUE APARTMENT HOLDINGS, LLC",5902 MEMORIAL HWY,51,0.249,27.983881,-82.570401
28,2022-09-01,2023-08-31,TUSCANY POINTE II (M-O) OWNER LLC,3350 W HILLSBOROUGH AVE,50,0.249,27.992827,-82.498036
29,2022-09-01,2023-08-31,"BELARA LAKES, LLC",2114 2 LAKES RD,49,0.249,28.025754,-82.480836
30,2022-09-01,2023-08-31,"BRIDGEVIEW APARTMENTS, LLC",7201 5 POINT CIR,48,0.249,27.992984,-82.558769
31,2022-09-01,2023-08-31,PALMS AT ASHLEY OAKS LLC,12736 N 17TH ST,47,0.249,28.06407,-82.440499
32,2022-09-01,2023-08-31,JMJ DORAL OAKS LLC,8710 DORAL OAKS DR,47,0.249,28.029639,-82.390755
33,2022-09-01,2023-08-31,UDR INC,1713 LAKE CHAPMAN DR,47,0.249,27.943696,-82.312811
34,2022-09-01,2023-08-31,WF CLEARWATER LLC,1121 DRUID RD E,46,0.249,27.955461,-82.790784
35,2022-09-01,2023-08-31,MACALPINE PLACE APARTMENTS,1410 DUNCAN LOOP S,46,0.249,28.001217,-82.765209
36,2022-09-01,2023-08-31,CROSSWYNDE,9320 CRESCENT LOOP CIR,45,0.249,27.935153,-82.348461
37,2022-09-01,2023-08-31,2211 GRAND ISLE LLC,1166 RIVAGE CIR,44,0.249,27.917346,-82.323221
38,2022-09-01,2023-08-31,WESTBURY AT LAKE BRANDON INVESTMENTS LLC,11404 WARWICK POINTE DR,44,0.249,27.917411,-82.319475
39,2022-09-01,2023-08-31,CARROLLWOOD PLACE FEE OWNER LLC,3906 CARROLLWOOD PLACE CIR,43,0.249,28.10631,-82.507361
40,2022-09-01,2023-08-31,BRANDON 248 OWNER LLC,1815 STERLING PALMS CT,43,0.249,27.908108,-82.322392
41,2022-09-01,2023-08-31,BAY COVE APARTMENTS,19135 US HIGHWAY 19 N,42,0.249,27.946429,-82.727536
42,2022-09-01,2023-08-31,"FRBH COURTNEY COVE, LLC",5510 N HIMES AVE,42,0.249,27.997958,-82.503265
43,2022-09-01,2023-08-31,PARC PLACE VILLAS,5704 CANDLEWICK CT,41,0.249,28.01199,-82.392068
44,2022-09-01,2023-08-31,VERSANT PLACE APARTMENTS,925 MEIZNER REAL AVE,40,0.249,27.920211,-82.299375
45,2022-09-01,2023-08-31,GENESIS APARTMENTS LLC,511 FAIRWOOD AVE,40,0.249,27.970938,-82.72165
46,2022-09-01,2023-08-31,LPG MADEIRA LLC,3910 75TH WAY N,40,0.249,27.807309,-82.742934
47,2022-09-01,2023-08-31,DEL RIO SLIGH HOLDINGS LLC,6605 N 50TH ST,40,0.249,28.010063,-82.40061
48,2022-09-01,2023-08-31,RIVOX LLC,6708 SHADEVILLE LN,40,0.249,28.008539,-82.411527
49,2022-09-01,2023-08-31,"CASABLANCA BAYVIEW, LLC",14514 HENSEL LN,40,0.249,28.077867,-82.435444
50,2022-09-01,2023-08-31,ARMATURE SQUARE APARTMENTS,4201 49TH ST N,39,0.249,27.810656,-82.699229
51,2022-09-01,2023-08-31,LAUREL CHASE APARTMENTS LLC,1404 MARATHON KEY DR,39,0.249,28.065375,-82.444816
52,2022-09-01,2023-08-31,BMF IV FL VERANDA WESTCHASE LLC,7630 SOUTHERN BROOK BND,38,0.249,28.023541,-82.627268
53,2022-09-01,2023-08-31,BMF V FL HAVEN WATERS EDGE LLC,8417 N ARMENIA AVE,38,0.249,28.025938,-82.483244
54,2022-09-01,2023-08-31,THE AVA APARTMENTS LLC,4902 N MACDILL AVE,38,0.249,27.991267,-82.493944
55,2022-09-01,2023-08-31,"GSIC II WESTCHASE, LLC",12105 LEXINGTON PARK DR,38,0.249,28.059787,-82.622832
56,2022-09-01,2023-08-31,WESTSIDE WESTSHORE OWNER LLC,1518 RIVER DR,38,0.249,27.984671,-82.474656
57,2022-09-01,2023-08-31,PACIFICA EMERALD BAY LLC A LIMITED LIABILITY COMPANY,3871 38TH AVE S,38,0.249,27.735457,-82.686349
58,2022-09-01,2023-08-31,ST CHARLES ROW,1175 PINELLAS POINT DR S,38,0.249,27.706122,-82.650535
59,2022-09-01,2023-08-31,BRITTANY BAY APARTMENTS,1201 SEMINOLE BLVD,38,0.249,27.904473,-82.784996
60,2022-09-01,2023-08-31,PRCP TAMPA ARBOR LLC,4121 E BUSCH BLVD,37,0.249,28.032221,-82.413576
61,2022-09-01,2023-08-31,LAUREL 112 LLC,13119 AARANS POND DR,37,0.249,28.066195,-82.439534
62,2022-09-01,2023-08-31,PASSCO PEARCE AT PAVILION DST,3415 PAVILION PALMS CIR,37,0.249,27.916806,-82.351011
63,2022-09-01,2023-08-31,PALMS AT SAND LAKE LLC,1209 SAND LAKE CIR,37,0.249,28.071332,-82.44451
64,2022-09-01,2023-08-31,HILLTOP ARMATURE GATE PROPERTY OWNER LP,13814 HERITAGE CLUB DR,36,0.249,28.073554,-82.417518
65,2022-09-01,2023-08-31,PACIFICA FOXCROFT LLC,3801 TOWER RD,36,0.249,28.0317,-82.505575
66,2022-09-01,2023-08-31,BIG WILDGRASS FL LLC,13612 WILDGRASS MEADOW DR,36,0.249,27.785091,-82.336559
67,2022-09-01,2023-08-31,THE PARK AT PORTOFINO,1905 PRINCETON LAKES DR,36,0.249,27.909491,-82.320483
68,2022-09-01,2023-08-31,RICHMAN PROPERTY SERVICES INC,513 KENDALL LAKE DR,35,0.249,27.948276,-82.324117
69,2022-09-01,2023-08-31,BALLSTON LLC,1720 CHAPEL TREE CIR,35,0.249,27.905827,-82.318193
70,2022-09-01,2023-08-31,49TH STREET APARTMENTS LP A LIMITED PARTNERSHIP,8400 49TH ST N,34,0.249,27.848015,-82.703124
71,2022-09-01,2023-08-31,MOBLEY PARK APARTMENTS,401 E 7TH AVE,34,0.249,27.959115,-82.457007
72,2022-09-01,2023-08-31,"CAMDEN ROYAL PALMS, LLC",808 MILANO CIR,34,0.249,27.903348,-82.294571
73,2022-09-01,2023-08-31,FLAGLER POINTE APARTMENT HOMES,6367 24TH ST S,34,0.249,27.709879,-82.664804
74,2022-09-01,2023-08-31,GREEN ARMATURE PARK LLC,7702 RIVERGATE DR,33,0.249,27.947882,-82.370473
75,2022-09-01,2023-08-31,GRANDE OAKS LLC,2625 PIONEER DAYS LN,32,0.249,28.005776,-82.431725
76,2022-09-01,2023-08-31,SUMMER PALMS APARTMENTS LLC,10204 MAJESTIC PALM CIR,32,0.249,27.786875,-82.340775
77,2022-09-01,2023-08-31,VESPER SOCIAL LLC,2913 NETWORK PL,32,0.249,28.081557,-82.430403
78,2022-09-01,2023-08-31,DEERPATH ON THE LAKE LLC,10200 N ARMENIA AVE,31,0.249,28.041635,-82.482584
79,2022-09-01,2023-08-31,HLBF LLC,1628 LADORA DR,31,0.249,27.909939,-82.323566
80,2022-09-01,2023-08-31,WESTCHASE ACQUISITION LP,10704 PRESERVE LAKE DR,31,0.249,28.05744,-82.630341
81,2022-09-01,2023-08-31,PALM HAVEN SP MHC LLC,3301 58TH AVE N,31,0.249,27.826514,-82.677806
82,2022-09-01,2023-08-31,RETREAT AT CROSSTOWN,10201 CASA PALARMO DR,30,0.249,27.920536,-82.342804
83,2022-09-01,2023-08-31,"6904 RALSTON PLACE, LLC",6840 RALSTON PLACE DR,30,0.249,28.010083,-82.48981
84,2022-09-01,2023-08-31,RPK ASSOCIATES LTD,1229 LOST KEY PL,30,0.249,28.067054,-82.446914
85,2022-09-01,2023-08-31,COLLIER REFLECTIONS OWNER LLC,14511 PRISM CIR,30,0.249,28.076975,-82.429349
86,2022-09-01,2023-08-31,WEST PORT COLONY,190 112TH AVE N,30,0.249,27.872982,-82.633525
87,2022-09-01,2023-08-31,THE DRAKE AT ST PETE,6707 16TH TER N,30,0.249,27.787539,-82.734515
88,2022-09-01,2023-08-31,HERITAGE COVE HOLDINGS LLC,7303 HERITAGE HILLS DR,30,0.249,28.031393,-82.372613
89,2022-09-01,2023-08-31,GENESIS APARTMENTS LLC,220 FAIRWOOD AVE,30,0.249,27.968454,-82.725523
90,2022-09-01,2023-08-31,CYPRESS MEADOWS ASSOCIATES LLC,3614 LANDINGS WAY DR,30,0.249,28.110676,-82.507238
91,2022-09-01,2023-08-31,SWEETWATER COVE PROPERTY LP,4313 GINGER COVE DR,29,0.249,27.981021,-82.559694
92,2022-09-01,2023-08-31,YMP RIVERSIDE PALMS LLC,5002 CASTILE PL,29,0.249,28.025591,-82.401391
93,2022-09-01,2023-08-31,JAX PARK LLC,2701 W WATERS AVE,29,0.249,28.026162,-82.487128
94,2022-09-01,2023-08-31,"FUND TUSCANY RIDGE, LLC",10034 PALERMO CIR,29,0.249,27.92677,-82.339389
95,2022-09-01,2023-08-31,"ROCKY CREEK APARTMENTS OWNER, LLC",5307 ARCHSTONE DR,29,0.249,27.994124,-82.554977
96,2022-09-01,2023-08-31,HANLEY PLACE APTS OWNER LLC,6433 SAN MARCOS CT,29,0.249,28.007095,-82.560861
97,2022-09-01,2023-08-31,THE STANDARD AT 2690,2690 DREW ST,29,0.249,27.969836,-82.726705
98,2022-09-01,2023-08-31,EMERALD POINTE APARTMENTS,200 73RD AVE N,29,0.249,27.838539,-82.636688
99,2022-09-01,2023-08-31,SOMERSET APARTMENTS,12800 VONN RD,29,0.249,27.888945,-82.822374
100,2022-09-01,2023-08-31,BEL SANCTUARY LLC,10112 DOUGLAS OAKS CIR,29,0.249,27.987406,-82.335051000000007
