position,time_period,end_date,xplaintiff,xstreet_clean,filings,top100,lat,lon
1,2/28/2022,3/4/2023,PALM RESIDENCES LLC,10610 N 30TH ST,110,0.254,28.045847,-82.428309
2,2/28/2022,3/4/2023,RESERVE AT LAKE POINTE MO OWNER LLC,2453 LYNN LAKE CIR S,108,0.254,27.718331,-82.665784
3,2/28/2022,3/4/2023,"RIVER CHASE PROPERTY HOLDINGS, LLC",5610 SATINWOOD WAY,96,0.254,28.027163,-82.377221
4,2/28/2022,3/4/2023,RIVERTREE LANDING APARTMENTS LLC,5906 SANTA FE RIVER DR,91,0.254,28.01171,-82.38903
5,2/28/2022,3/4/2023,1918 PLANTATION KEY OWNER LLC,2010 PLANTATION KEY CIR,91,0.254,27.931275,-82.3154
6,2/28/2022,3/4/2023,BELLAMAR HOLDINGS LLC,1307 E 127TH AVE,85,0.254,28.060257,-82.443153
7,2/28/2022,3/4/2023,ASHFORD BAYSIDE LLC,5510 58TH WAY N,83,0.254,27.822333,-82.713319
8,2/28/2022,3/4/2023,PARK ABERDEEN APARTMENTS LLC,13819 AZALEA CIR,80,0.254,28.073093,-82.429552
9,2/28/2022,3/4/2023,RIVER POINTE APARTMENTS LLC,4808 PURITAN RD,79,0.254,28.020881,-82.404208
10,2/28/2022,3/4/2023,BMF IV FL RADIUS PALMS LLC,3416 PALM CROSSING DR,79,0.254,28.078444,-82.419959
11,2/28/2022,3/4/2023,PURITAN PLACE APARTMENTS LLC,7807 RIVER RESORT LN,77,0.254,28.018743,-82.403547
12,2/28/2022,3/4/2023,RESPARK BUNGALOW OAKS LLC,5914 JENNY DR,73,0.254,28.066476,-82.387686
13,2/28/2022,3/4/2023,OSPREY POINTE APTS LLC,5725 17TH WAY S,73,0.254,27.718892,-82.657354
14,2/28/2022,3/4/2023,BMF IV FL VERANDA WESTCHASE LLC,7617 SOUTHERN BROOK BND,72,0.254,28.022886,-82.622438
15,2/28/2022,3/4/2023,THE AVA APARTMENTS LLC,4902 N MACDILL AVE,71,0.254,27.991267,-82.493944
16,2/28/2022,3/4/2023,MELROSE ON THE BAY M-O OWNER LLC,5074 FOXBRIDGE CIR N,71,0.254,27.923101,-82.703746
17,2/28/2022,3/4/2023,THE IVY APARTMENTS LLC,3612 JEFFERSON COMMONS DR,70,0.254,28.074411,-82.418153
18,2/28/2022,3/4/2023,LANDMARK AT GRAYSON PARK LP,15501 BRUCE B DOWNS BLVD,70,0.254,28.080611,-82.407005
19,2/28/2022,3/4/2023,RIVOX LLC,6704 SHADEVILLE LN,65,0.254,28.008539,-82.41152
20,2/28/2022,3/4/2023,YMP RIVERSIDE PALMS LLC,5001 CASTILE PL,64,0.254,28.026269,-82.402115
21,2/28/2022,3/4/2023,2211 GRAND ISLE LLC,1157 RIVAGE CIR,64,0.254,27.917178,-82.322337
22,2/28/2022,3/4/2023,TIMBERFALLS 113 HOLDINGS LLC,11301 SPRING CT,64,0.254,28.051102,-82.429914
23,2/28/2022,3/4/2023,CLAYMORE HOUSING GP LLC,4512 CLAYMORE DR,62,0.254,27.989146,-82.31921
24,2/28/2022,3/4/2023,BMF V FL HAVEN WATERS EDGE LLC,8417 N ARMENIA AVE,61,0.254,28.027309,-82.483689
25,2/28/2022,3/4/2023,"BELARA LAKES, LLC",2112 2 LAKES RD,58,0.254,28.025753,-82.480814
26,2/28/2022,3/4/2023,JMJ DORAL OAKS LLC,8885 TANGLEWOOD PL,58,0.254,28.030785,-82.391018
27,2/28/2022,3/4/2023,RIVIERA TFL LLC,5236 MATADOR CT,58,0.254,28.026914,-82.399479
28,2/28/2022,3/4/2023,BRANDON 248 OWNER LLC,1802 STERLING PALMS CT,55,0.254,27.907634,-82.322575
29,2/28/2022,3/4/2023,ANTHEM CLEARWATER APARTMENTS,2770 ROOSEVELT BLVD,54,0.254,27.91949,-82.723044
30,2/28/2022,3/4/2023,CROSSWYNDE,9320 CRESCENT LOOP CIR,53,0.254,27.936464,-82.351399
31,2/28/2022,3/4/2023,RICHMAN PROPERTY SERVICES INC,2212 KENDALL SPRINGS CT,52,0.254,27.94697,-82.322172
32,2/28/2022,3/4/2023,PARC PLACE VILLAS,6911 SOCIETY DR,51,0.254,28.011606,-82.391511
33,2/28/2022,3/4/2023,SUMMER PALMS APARTMENTS LLC,10117 MAJESTIC PALM CIR,51,0.254,27.787045,-82.340157
34,2/28/2022,3/4/2023,BRITTANY BAY APARTMENTS,1201 SEMINOLE BLVD,51,0.254,27.904473,-82.784996
35,2/28/2022,3/4/2023,"SUNSTONE PROPERTIES TRUST, LLC",2203 FITNESS CLUB WAY,50,0.254,28.062951,-82.434043
36,2/28/2022,3/4/2023,DEL RIO SLIGH HOLDINGS LLC,5208 E SLIGH AVE,48,0.254,28.010327,-82.401005
37,2/28/2022,3/4/2023,RIVER VIEW APARTMENTS LLC,5605 DEL PRADO DR,48,0.254,28.015988,-82.392845
38,2/28/2022,3/4/2023,BAY COVE APARTMENTS,19135 US HIGHWAY 19 N,48,0.254,27.946429,-82.727536
39,2/28/2022,3/4/2023,MACALPINE PLACE APARTMENTS,1410 DUNCAN LOOP S,46,0.254,28.001217,-82.765209
40,2/28/2022,3/4/2023,VER,1250 SKIPPER RD,46,0.254,28.08091,-82.446247
41,2/28/2022,3/4/2023,HANLEY PLACE APTS OWNER LLC,7321 ENCANTO CT,45,0.254,28.004604,-82.561666
42,2/28/2022,3/4/2023,REFLECTIONS APARTMENTS,14511 PRISM CIR,45,0.254,28.076975,-82.429349
43,2/28/2022,3/4/2023,UDR INC,411 RAINBOW SPRINGS CT,45,0.254,27.942889,-82.310861
44,2/28/2022,3/4/2023,"LURIN REAL ESTATE HOLDINGS LVIII, LLC",4003 SW SHORE BLVD,44,0.254,27.906093,-82.529114
45,2/28/2022,3/4/2023,SPT WAH WEXFORD LLC,5605 WILLIAM GRANT WAY,44,0.254,27.999042,-82.368398
46,2/28/2022,3/4/2023,MARISOL VISTA,10073 14TH ST N,44,0.254,27.863706,-82.653241
47,2/28/2022,3/4/2023,"CC OAK CHASE, LLC",12503 TINSLEY TERRACE DR,43,0.254,28.060841,-82.439724
48,2/28/2022,3/4/2023,WESTBURY AT LAKE BRANDON INVESTMENTS LLC,1002 WESTBURY POINTE DR,43,0.254,27.918426,-82.319794
49,2/28/2022,3/4/2023,CARROLLWOOD PLACE FEE OWNER LLC,3702 NATURE VIEW WAY,43,0.254,28.106532,-82.508013
50,2/28/2022,3/4/2023,"AMBERLY TT, LLC",15201 PLANTATION OAKS DR,42,0.254,28.086516,-82.40218
51,2/28/2022,3/4/2023,HERITAGE AT TEMPLE LLC,536 HERITAGE BROOK CIR,42,0.254,28.046721,-82.392267
52,2/28/2022,3/4/2023,GENESIS APARTMENTS LLC,300 FAIRWOOD AVE,42,0.254,27.968918,-82.724679
53,2/28/2022,3/4/2023,"BRIDGEVIEW APARTMENTS, LLC",7201 5 POINT CIR,42,0.254,27.993876,-82.561475
54,2/28/2022,3/4/2023,VESPER SOCIAL LLC,2901 NETWORK PL,42,0.254,28.08183,-82.43028
55,2/28/2022,3/4/2023,PALMS AT SAND LAKE LLC,1213 SAND LAKE CIR,41,0.254,28.071333,-82.444587
56,2/28/2022,3/4/2023,GENESIS APARTMENTS LLC,511 FAIRWOOD AVE,39,0.254,27.970938,-82.72165
57,2/28/2022,3/4/2023,BFM IV FL RETREAT CROSSTOWN LLC,10307 CASA PALARMO DR,39,0.254,27.919649,-82.341168
58,2/28/2022,3/4/2023,"6904 RALSTON PLACE, LLC",6912 RALSTON PLACE DR,39,0.254,28.010083,-82.48981
59,2/28/2022,3/4/2023,ST MORITZ TIC PARTICIPANT 4 LLC,13814 HERITAGE CLUB DR,39,0.254,28.073554,-82.417518
60,2/28/2022,3/4/2023,MOBLEY PARK APTS,401 E 7TH AVE,39,0.254,27.959115,-82.457007
61,2/28/2022,3/4/2023,PADDOCK CLUB APARTMENTS,1307 GULF STREAM CIR,39,0.254,27.92501,-82.304039
62,2/28/2022,3/4/2023,PACIFICA HELLENIC LLC,4101 ILIAD CT,39,0.254,28.078152,-82.415496
63,2/28/2022,3/4/2023,PALMS AT ASHLEY OAKS LLC,12736 N 17TH ST,38,0.254,28.06407,-82.440499
64,2/28/2022,3/4/2023,DEERPATH ON THE LAKE LLC,10200 N ARMENIA AVE,38,0.254,28.041635,-82.482584
65,2/28/2022,3/4/2023,BIG WILDGRASS FL LLC,10312 GARDEN TERRACE LN,38,0.254,27.785091,-82.336559
66,2/28/2022,3/4/2023,"BAY VUE APARTMENT HOLDINGS, LLC",5902 MEMORIAL HWY,38,0.254,27.983881,-82.570401
67,2/28/2022,3/4/2023,TUSCANY POINTE II (M-O) OWNER LLC,3350 W HILLSBOROUGH AVE,37,0.254,27.993507,-82.497647
68,2/28/2022,3/4/2023,PRCP TAMPA ARBOR LLC,4121 E BUSCH BLVD,37,0.254,28.032221,-82.413576
69,2/28/2022,3/4/2023,"UPTOWN AMBRUS INVESTMENTS, LLC",2016 E 131ST AVE,37,0.254,28.066131,-82.43557
70,2/28/2022,3/4/2023,EMERALD POINTE APARTMENTS,175 73RD AVE N,37,0.254,27.838539,-82.636688
71,2/28/2022,3/4/2023,SABINA PROPERTIES LLC,2602 GEMINI CT,37,0.254,28.002445,-82.485944
72,2/28/2022,3/4/2023,"PARADISE VILLAGE MHC, LLC",4528 SUNDOWN LN,36,0.254,27.987094,-82.345197
73,2/28/2022,3/4/2023,GRANDE OAKS LLC,2628 BELMONT OAKS LN,36,0.254,28.007406,-82.431639
74,2/28/2022,3/4/2023,WESTCHASE ACQUISITION LP,10704 PRESERVE LAKE DR,36,0.254,28.057319,-82.629758
75,2/28/2022,3/4/2023,"HAMILTON BAY PROPERTY HOLDINGS, LLC",1602 HARVARD WOODS DR,36,0.254,27.910501,-82.321021
76,2/28/2022,3/4/2023,PACIFICA EMERALD BAY LLC A LIMITED LIABILITY COMPANY,3655 40TH ST S,35,0.254,27.73541,-82.687374
77,2/28/2022,3/4/2023,MLG PF TURNBURY AT COUNTRYSIDE INVESTMENT LLC A LIMITED LIABILITY COMPANY,25350 US HIGHWAY 19 N,35,0.254,28.001638,-82.730642
78,2/28/2022,3/4/2023,TERRACES AT CLEARWATER BEACH,1121 DRUID RD E,34,0.254,27.955461,-82.790784
79,2/28/2022,3/4/2023,PACIFICA FOXCROFT LLC,3801 TOWER RD,34,0.254,28.031672,-82.505573
80,2/28/2022,3/4/2023,CROSS CREEK LLC,10314 VENITIA REAL AVE,34,0.254,28.144527,-82.319705
81,2/28/2022,3/4/2023,HLBF LLC,1628 LADORA DR,34,0.254,27.909556,-82.324548
82,2/28/2022,3/4/2023,1918 PLANTATION KEY OWNER LLC,419 PROVIDENCE RD,34,0.254,27.933366,-82.313885
83,2/28/2022,3/4/2023,THE WAYLAND,305 MARTIN LUTHER KING JR ST S,34,0.254,27.767991,-82.64716
84,2/28/2022,3/4/2023,WINDWOOD OAKS TAMPA APARTMENTS LTD,14861 SHADY KNOLL CT,34,0.254,28.081811,-82.462092
85,2/28/2022,3/4/2023,NORTHLAND ELEMENT LLC,808 N FRANKLIN ST,34,0.254,27.951004,-82.459679
86,2/28/2022,3/4/2023,SAS FAIRVIEW COVE MANAGERS LLC,3735 FAIRVIEW COVE LN,33,0.254,27.97905,-82.372551
87,2/28/2022,3/4/2023,SEASTONE AX LLC,11024 LE JARDIN CIR,33,0.254,28.048002,-82.395982
88,2/28/2022,3/4/2023,"ROCKY CREEK APARTMENTS OWNER, LLC",5336 ARCHSTONE DR,33,0.254,27.993853,-82.556423
89,2/28/2022,3/4/2023,"CAMDEN ROYAL PALMS, LLC",916 MILANO CIR,33,0.254,27.902515,-82.296568
90,2/28/2022,3/4/2023,AVANA COACHMAN,2481 NE COACHMAN RD,33,0.254,27.978341,-82.735183
91,2/28/2022,3/4/2023,CASABLANCA BAYVIEW LLC,14301 HENSEL LN,33,0.254,28.07929,-82.435021
92,2/28/2022,3/4/2023,49TH STREET APARTMENTS,8400 49TH ST N,32,0.254,27.848015,-82.703124
93,2/28/2022,3/4/2023,SERENITY CREEK TIC PARTICIPANT 1 LLC,4201 49TH ST N,32,0.254,27.810656,-82.699229
94,2/28/2022,3/4/2023,LANTOWER CROSSROADS BRANDON GP LLC,2541 BROWN NODDY LN,32,0.254,27.924699,-82.335554
95,2/28/2022,3/4/2023,THE STANDARD AT 2690,2690 DREW ST,32,0.254,27.969836,-82.726705
96,2/28/2022,3/4/2023,CNC WATERWAYS LP,10833 SAKONNET RIVER DR,32,0.254,28.008626,-82.606312
97,2/28/2022,3/4/2023,BRIDGE WF FL PLANTATION AT WALDEN LAKE LLC,1412 PLANTATION CIR,32,0.254,28.002096,-82.139759
98,2/28/2022,3/4/2023,PALMETTO PRESERVATION LTD A LIMITED PARTNERSHIP,1001 N MARTIN LUTHER KING JR AVE,32,0.254,27.97637,-82.790817
99,2/28/2022,3/4/2023,LPG MADEIRA LLC,3865 75TH LN N,31,0.254,27.807398,-82.743239
100,2/28/2022,3/4/2023,PROMENADE AT CARILLON,540 CARILLON PKWY,31,0.254,27.88413,-82.660688
